[{
  "id": "ono",
  "name": "אונו",
  "lat": 32.056,
  "lng": 34.859
}, {
  "id": "eilat",
  "name": "אילת",
  "lat": 29.559,
  "lng": 34.952
}, {
  "id": "ashdod",
  "name": "אשדוד-אשקלון",
  "lat": 31.804,
  "lng": 34.655
}, {
  "id": "beer-sheva",
  "name": "באר שבע",
  "lat": 31.253,
  "lng": 34.791
}, {
  "id": "hakeneret",
  "name": "הכנרת ורמת הגולן",
  "lat": 32.79,
  "lng": 35.53
}, {
  "id": "hertzelia",
  "name": "הרצליה-רמת השרון",
  "lat": 32.163,
  "lng": 34.845
}, {
  "id": "zichron",
  "name": "זכרון-חדרה-בנימינה",
  "lat": 32.574,
  "lng": 34.952
}, {
  "id": "holon",
  "name": "חולון-בת ים",
  "lat": 32.013,
  "lng": 34.748
}, {
  "id": "haifa",
  "name": "חיפה והקריות",
  "lat": 32.83,
  "lng": 34.97
}, {
  "id": "yavne",
  "name": "יבנה גדרה והסביבה",
  "lat": 31.879,
  "lng": 34.739
}, {
  "id": "arava",
  "name": "ים המלח והערבה",
  "lat": 31.16,
  "lng": 35.36
}, {
  "id": "jerusalem",
  "name": "ירושלים",
  "lat": 31.768,
  "lng": 35.214
}, {
  "id": "naharia",
  "name": "כרמיאל נהריה והגליל המערבי",
  "timezone": "Israel Standard Time",
  "timezoneIdentifier": "Asia/Jerusalem",
  "lat": 33.021,
  "lng": 35.092
}, {
  "id": "kosher",
  "name": "כשר",
  "lat": 0.0,
  "lng": 0.0
}, {
  "id": "lachish",
  "name": "לכיש ונגב מערבי",
  "lat": 31.625,
  "lng": 34.766
}, {
  "id": "modiin",
  "name": "מודיעין - שוהם",
  "lat": 31.895,
  "lng": 35.01
}, {
  "id": "natania",
  "name": "נתניה והסביבה",
  "lat": 32.322,
  "lng": 34.853
}, {
  "id": "special",
  "name": "ספיישלים",
  "lat": 0.0,
  "lng": 0.0
}, {
  "id": "afula",
  "name": "עפולה והעמקים",
  "lat": 32.614,
  "lng": 35.288
}, {
  "id": "petah-tikva",
  "name": "פתח תקווה",
  "lat": 32.084,
  "lng": 34.888
}, {
  "id": "rishon",
  "name": "ראשון לציון והסביבה",
  "lat": 31.962,
  "lng": 34.807
}, {
  "id": "rehovot",
  "name": "רחובות-נס ציונה",
  "lat": 31.893,
  "lng": 34.811
}, {
  "id": "ramla-lod",
  "name": "רמלה - לוד",
  "lat": 31.934,
  "lng": 34.873
}, {
  "id": "ramat-gan",
  "name": "רמת גן-גבעתיים-בני ברק",
  "lat": 32.069,
  "lng": 34.825
}, {
  "id": "raanana",
  "name": "רעננה-כפ\"ס-הוד השרון",
  "lat": 32.178,
  "lng": 34.908
}, {
  "id": "tel-aviv",
  "name": "תל אביב",
  "lat": 32.066,
  "lng": 34.778
}]
